[{
		"bid":"10",
		"branch_name":"",
		"cid":"172",
		"city":"北京市",
		"comment_num":"4",
		"cons_per":".",
		"county":"海淀区",
		"distance":"",
		"latitude":"39.964705",
		"logo":"http://img3.imgtn.bdimg.com/it/u=3231328316,4272936977&fm=27&gp=0.jpg",
		"longitude":"116.324959",
		"score":0,
		"slogan":"记录精彩每一刻",
		"store_name":"厘米证件照工作室",
		"street":"",
		"summary":"",
		"view":"329"
	},
	{
		"bid":"4",
		"branch_name":"",
		"cid":"172",
		"city":"北京市",
		"comment_num":"4",
		"cons_per":".",
		"county":"海淀区",
		"distance":"",
		"latitude":"39.964705",
		"logo":"http://img5.imgtn.bdimg.com/it/u=463348668,144199583&fm=27&gp=0.jpg",
		"longitude":"116.324959",
		"score":0,
		"slogan":"记录精彩每一刻",
		"store_name":"厘米证件照工作室",
		"street":"",
		"summary":"",
		"view":"329"
	},
	{
		"bid":"7",
		"branch_name":"",
		"cid":"172",
		"city":"北京市",
		"comment_num":"4",
		"cons_per":".",
		"county":"海淀区",
		"distance":"",
		"latitude":"39.964705",
		"logo":"http://img1.imgtn.bdimg.com/it/u=507785595,557632096&fm=27&gp=0.jpg",
		"longitude":"116.324959",
		"score":0,
		"slogan":"记录精彩每一刻",
		"store_name":"厘米证件照工作室",
		"street":"",
		"summary":"",
		"view":"329"
	},
	{
		"bid":"6",
		"branch_name":"",
		"cid":"172",
		"city":"北京市",
		"comment_num":"4",
		"cons_per":".",
		"county":"海淀区",
		"distance":"",
		"latitude":"39.964705",
		"logo":"http://img0.imgtn.bdimg.com/it/u=1822805438,3004938008&fm=27&gp=0.jpg",
		"longitude":"116.324959",
		"score":0,
		"slogan":"记录精彩每一刻",
		"store_name":"厘米证件照工作室",
		"street":"",
		"summary":"",
		"view":"329"
	},
	{
		"bid":"22",
		"branch_name":"",
		"cid":"172",
		"city":"北京市",
		"comment_num":"4",
		"cons_per":".",
		"county":"海淀区",
		"distance":"",
		"latitude":"39.964705",
		"logo":"http://img5.imgtn.bdimg.com/it/u=3223568273,1106819602&fm=27&gp=0.jpg",
		"longitude":"116.324959",
		"score":0,
		"slogan":"记录精彩每一刻",
		"store_name":"厘米证件照工作室",
		"street":"",
		"summary":"",
		"view":"329"
	},
	{
		"bid":"9",
		"branch_name":"",
		"cid":"172",
		"city":"北京市",
		"comment_num":"4",
		"cons_per":".",
		"county":"海淀区",
		"distance":"",
		"latitude":"39.964705",
		"logo":"http://img0.imgtn.bdimg.com/it/u=1822805438,3004938008&fm=27&gp=0.jpg",
		"longitude":"116.324959",
		"score":0,
		"slogan":"记录精彩每一刻",
		"store_name":"厘米证件照工作室",
		"street":"",
		"summary":"",
		"view":"329"
	},
	{
		"bid":"2",
		"branch_name":"",
		"cid":"172",
		"city":"北京市",
		"comment_num":"4",
		"cons_per":".",
		"county":"海淀区",
		"distance":"",
		"latitude":"39.964705",
		"logo":"http://img0.imgtn.bdimg.com/it/u=2699318368,1120205414&fm=27&gp=0.jpg",
		"longitude":"116.324959",
		"score":0,
		"slogan":"记录精彩每一刻",
		"store_name":"厘米证件照工作室",
		"street":"",
		"summary":"",
		"view":"329"
	},
	{
		"bid":"5",
		"branch_name":"",
		"cid":"172",
		"city":"北京市",
		"comment_num":"4",
		"cons_per":".",
		"county":"海淀区",
		"distance":"",
		"latitude":"39.964705",
		"logo":"http://img3.imgtn.bdimg.com/it/u=4042583319,3086108038&fm=27&gp=0.jpg",
		"longitude":"116.324959",
		"score":0,
		"slogan":"记录精彩每一刻",
		"store_name":"厘米证件照工作室",
		"street":"",
		"summary":"",
		"view":"329"
	},
	{
		"bid":"8",
		"branch_name":"",
		"cid":"172",
		"city":"北京市",
		"comment_num":"4",
		"cons_per":".",
		"county":"海淀区",
		"distance":"",
		"latitude":"39.964705",
		"logo":"http://img1.imgtn.bdimg.com/it/u=356557567,1729482300&fm=27&gp=0.jpg",
		"longitude":"116.324959",
		"score":0,
		"slogan":"记录精彩每一刻",
		"store_name":"厘米证件照工作室",
		"street":"",
		"summary":"",
		"view":"329"
	},
	{
		"bid":"11",
		"branch_name":"",
		"cid":"172",
		"city":"北京市",
		"comment_num":"4",
		"cons_per":".",
		"county":"海淀区",
		"distance":"",
		"latitude":"39.964705",
		"logo":"http://img1.imgtn.bdimg.com/it/u=356557567,1729482300&fm=27&gp=0.jpg",
		"longitude":"116.324959",
		"score":0,
		"slogan":"记录精彩每一刻",
		"store_name":"厘米证件照工作室",
		"street":"",
		"summary":"",
		"view":"329"
	}]